name,location,Business ID,alias,title,rating,review_count,price,latitude,longitude,City
Hendry Vineyard and Winery,"3104 Redwood Rd Napa, CA 94558",mO8n3zTLoFhlmcfQr7X_TQ,wineries,Wineries,5.0,658,$$,38.32168,-122.34481,Napa_Valley
Domaine Carneros,"1240 Duhig Rd Napa, CA 94559",8eGTOeEQpUpYb89ISug3ag,wineries,Wineries,4.0,2239,$$,38.25553421701142,-122.35139091165661,Napa_Valley
Paraduxx Winery,"7257 Silverado Trl Napa, CA 94558",cBFZALrZbLV5XBsiPcgknQ,wineries,Wineries,4.5,373,$$,38.43548,-122.35143,Napa_Valley
Jarvis Winery,"2970 Monticello Rd Napa, CA 94558",NPkAqW68Og5eBofEpPiRXQ,wineries,Wineries,4.5,209,$$$,38.35701,-122.21362,Napa_Valley
Cuvaison Estate Wines,"1221 Duhig Rd Napa, CA 94559",rjiMUH4UecBVD3wkqhgxXw,wineries,Wineries,4.0,327,$$,38.251176,-122.347084,Napa_Valley
Clos du Val,"5330 Silverado Trl Napa, CA 94558",CKdHGiYJ42pS89r1PDxd2g,wineries,Wineries,4.0,328,$$,38.3872498,-122.3125063,Napa_Valley
William Hill Estate Winery,"1761 Atlas Peak Rd Napa, CA 94558",1ol6_Oxrb3Oq_LSko85BfQ,wineries,Wineries,4.5,186,$$,38.3555817630865,-122.270102462921,Napa_Valley
White Rock Vineyards,"1112 Loma Vista Dr Napa, CA 94558",shbhrTpVLOdql8hNGC9NDw,wineries,Wineries,5.0,55,$$,38.377683,-122.286565,Napa_Valley
Platypus Wine Tours,"182 Camino Oruga Napa, CA 94558",USWs09dJN8fSrVbLZ1gDhQ,winetours,Wine Tours,5.0,895,,38.2283082,-122.2539009,Napa_Valley
Shadybrook Estate Winery,"100 Rapp Ln Napa, CA 94558",uELtBkcq7xqAF9970casZw,wineries,Wineries,5.0,180,$$,38.308954,-122.248219,Napa_Valley
Stag's Leap Wine Cellars,"5766 Silverado Trl Napa, CA 94558",4Nadx95153ze4VrS8AQpMA,winetours,Wine Tours,4.0,487,$$$,38.3983978,-122.3243927,Napa_Valley
Ashes & Diamonds,"4130 Howard Ln Napa, CA 94558",kMGm-nfpM7ihMioPNe4wNQ,wineries,Wineries,4.0,181,$$,38.34425,-122.326284,Napa_Valley
Hagafen Cellars,"4160 Silverado Trl Napa, CA 94558",W8IaBhw2-S_ItlOFBH1ilA,wineries,Wineries,4.5,459,$$,38.364751,-122.289435,Napa_Valley
Saintsbury,"1500 Los Carneros Ave Napa, CA 94559",gm0vRczMVOyJV88EnlcCJg,wineries,Wineries,4.5,136,$$,38.24996,-122.32538,Napa_Valley
Stags' Leap Winery,"6150 Silverado Trl Napa, CA 94558",bz6MlQQxk5Hy3IFU8SwY3A,wineries,Wineries,4.0,223,$$$,38.415754,-122.318884,Napa_Valley
Chimney Rock Winery,"5350 Silverado Trl Napa, CA 94558",RU1Vj27-jl_cXzLldjKOJg,wineries,Wineries,4.0,316,$$$,38.390201,-122.313843,Napa_Valley
Trefethen Family Vineyards,"1160 Oak Knoll Ave Napa, CA 94558",PvWarVB1XiBf3YtMjDYoJg,wineries,Wineries,4.5,351,$$,38.3562374223633,-122.322991049978,Napa_Valley
Trinitas Cellars,"850 Bordeaux Way Ste 1 Napa, CA 94558",wNnfD8wW3ts6uyXiMSZWkg,wineries,Wineries,4.5,205,$$,38.2471,-122.274639,Napa_Valley
Verve Napa Valley,"Napa, CA 94558",oS0trWApclsXa6G70z9OUQ,winetours,Wine Tours,5.0,41,,38.3177642822266,-122.29174041748,Napa_Valley
Darioush Winery,"4240 Silverado Trl Napa, CA 94558",I_RKcCl8G0YVrCqXmgYbew,wineries,Wineries,3.5,554,$$$,38.36752,-122.29424,Napa_Valley
Piazza Del Dotto,"7466 St Helena Hwy Napa, CA 94558",pUem3oCj6prFnZFreyeDyw,wineries,Wineries,4.5,74,$$$$,38.422,-122.38811,Napa_Valley
Judd's Hill Winery,"2332 Silverado Trl Napa, CA 94558",M-K51KkDDJJyZSQCW7lUWA,wineries,Wineries,4.5,275,$$,38.3393261000088,-122.27976149046,Napa_Valley
Roots Run Deep Winery,"1607 First St Napa, CA 94559",elo4bmtk7nf5761zuq2muA,wineries,Wineries,4.5,55,$$,38.297016,-122.291339,Napa_Valley
Silverado Vineyards,"6121 Silverado Trl Napa, CA 94558",rMh9PfBpPqN8pEusPYhOvQ,wineries,Wineries,4.0,312,$$,38.412273,-122.336858,Napa_Valley
Monticello Vineyards - Corley Family Napa Valley,"4242 Big Ranch Rd Napa, CA 94558",mX9fBL4mxicdEm4kO3P_ug,wineries,Wineries,4.5,128,$$,38.359204,-122.3106703,Napa_Valley
Kieu Hoang Winery,"1285 Dealy Ln Napa, CA 94559",sOMd4B3yiE_HrKcucHsfXw,wineries,Wineries,4.5,88,$$,38.26739,-122.3487,Napa_Valley
Signorello Estate,"4500 Silverado Trl Napa, CA 94558",j-e9rmg77oZxjOFE3BWZfw,wineries,Wineries,4.5,142,$$,38.37017,-122.29481,Napa_Valley
Palmaz Vineyards,"4029 Hagen Rd Napa, CA 94558",dkBVKCKwzyk09VIhWIbONA,wineries,Wineries,5.0,125,$$$,38.323297,-122.235727,Napa_Valley
Porter Family Vineyards,"1189 Green Valley Rd Napa, CA 94558",hODdEauc4S3GEv_5coqQqw,wineries,Wineries,5.0,57,$$$,38.2890722,-122.2273244,Napa_Valley
Cornerstone Cellars,"1465 1st St Napa, CA 94559",FICVpmXRcWjQwAe87P9ZqA,wineries,Wineries,4.5,178,$$,38.29734,-122.28893,Napa_Valley
Truchard Vineyards,"3234 Old Sonoma Rd Napa, CA 94559",L146DJ8gXekGeJnLzRuuuA,wineries,Wineries,4.5,85,$$,38.289128186648,-122.317485809326,Napa_Valley
O'Brien Estate,"1200 Orchard Ave Napa, CA 94558",Q9nnwLPUI66JovirXricwA,wineries,Wineries,4.5,187,$$,38.3458853537695,-122.33976825643451,Napa_Valley
Laird Family Estate,"5055 Solano Ave Napa, CA 94558",CBgrreBS92t96o8JUg7Flw,wineries,Wineries,4.5,163,$$,38.3539772033691,-122.335693359375,Napa_Valley
Etude Wines,"1250 Cuttings Wharf Rd Napa, CA 94559",H_0SOBdmEzzkk9398319TA,wineries,Wineries,4.0,176,$$,38.245847,-122.3150228,Napa_Valley
Silenus Winery,"5225 Solano Ave Napa, CA 94558",fD7VrIMnNQJy5iewJ5_Mng,wineries,Wineries,4.5,121,$$,38.363672,-122.339213,Napa_Valley
Kenzo Estate,"3200 Monticello Rd Napa, CA 94558",wC3Ln2md73EHCiSAj32ugg,wineries,Wineries,4.5,68,$$$,38.354502,-122.204136,Napa_Valley
Napa Sonoma Wine Tasting Driver ®,"902 Enterprise Way Ste K Napa, CA 94558",PpOjhPCGMObVfnh3-3wAcQ,winetours,Wine Tours,5.0,126,,38.2587139,-122.2717063,Napa_Valley
Goosecross Cellars,"1119 State Ln Yountville, CA 94599",tlP1ir-OEzsAYNWJYYNMNg,wineries,Wineries,4.5,387,$$,38.4266242980957,-122.352890014648,Napa_Valley
Eleven Eleven Winery,"620 Trancas St Napa, CA 94558",j8TEOilvSUqT2okhmzO9hA,wineries,Wineries,5.0,36,$$$,38.3249893,-122.286911,Napa_Valley
Reynolds Family Winery,"3266 Silverado Trl Napa, CA 94558",vz4XmKow74fr2UpIiAd9VQ,wineries,Wineries,4.0,127,$$,38.3552406,-122.2869398,Napa_Valley
JaM Cellars,"1460 First St Napa, CA 94559",z31nB1cGHiwJ3MoS9qwEMQ,wineries,Wineries,4.5,161,$$,38.297435,-122.2893433,Napa_Valley
Caldwell Vineyard,"270 Kreuzer Ln Napa, CA 94559",ldstE5CK2164kL9torc3Gg,wineries,Wineries,5.0,49,$$$,38.2869459,-122.2358185,Napa_Valley
Robert Mondavi Winery,"7801 Saint Helena Hwy Oakville, CA 94562",YEu8EFkgZdW6NXpAAvdVoA,wineries,Wineries,4.0,1099,$$,38.441422,-122.409546,Napa_Valley
Elyse Winery,"2100 Hoffman Ln Napa, CA 94558",-yr50TXHYTwb0iNGzinWfg,wineries,Wineries,4.5,117,$$,38.38361,-122.35451,Napa_Valley
Fontanella Family Winery,"1721 Partrick Rd Napa, CA 94558",ejcIUI5SCZbSTI510uczUw,wineries,Wineries,5.0,52,$$,38.312613,-122.373269,Napa_Valley
Pine Ridge Vineyards,"5901 Silverado Trl Napa, CA 94558",7XaePrZPo7w2HmuJWUtKwA,wineries,Wineries,4.5,307,$$$,38.4047399,-122.33277,Napa_Valley
Trahan Winery,"974 Franklin St Napa, CA 94559",SxT6FVxubgyVr5PApCpiWg,wineries,Wineries,4.5,99,$$,38.29745,-122.28838,Napa_Valley
Chandon,"1 California Dr Yountville, CA 94599",6xAxed-Mkvu0Xq5lWzt9Lw,wineries,Wineries,3.5,1449,$$,38.3963745949975,-122.364698011115,Napa_Valley
Odette Estate,"5998 Silverado Trl Napa, CA 94558",Gh67mm_aNPi2UHd3su1jgA,wineries,Wineries,4.0,78,$$,38.40556,-122.32773,Napa_Valley
Robert Sinskey Vineyards,"6320 Silverado Trl Napa, CA 94558",5PZhHJ-GPGO40Uamd7MZGw,wineries,Wineries,4.0,338,$$$,38.425414,-122.337002,Napa_Valley
Hyde Estate Winery,"1044 Los Carneros Ave Napa, CA 94559",Bg5s--7xCdhGQnyuI1WJtQ,wineries,Wineries,5.0,4,,38.253863,-122.330619,Napa_Valley
AvinoDos Wines,"901 Enterprise Way Ste B Napa, CA 94558",RdQxvcdPgMkl__Q7h-7zUw,wineries,Wineries,5.0,25,$$,38.25867,-122.2736,Napa_Valley
Yao Family Wines,"Napa, CA 94559",Pp7Su_2q7VKH0KsqrQe21w,wineries,Wineries,4.5,81,$$,38.2678756713867,-122.24878692627,Napa_Valley
Mi Sueno Winery,"910 Enterprise Way Ste M Napa, CA 94558",HR7frtjVDOEdtZSSKxMhQg,wineries,Wineries,5.0,34,$$,38.2598016,-122.2720075,Napa_Valley
Cakebread Cellars,"8300 St Helena Hwy Rutherford, CA 94573",NY-SXE9i072Qq7h_VZDawg,wineries,Wineries,4.0,788,$$,38.447904,-122.409682,Napa_Valley
McKenzie-Mueller Vineyards and Winery,"2530 Las Amigas Rd Napa, CA 94559",Ynj5_o-bVnaiRKwa6oS-uA,wineries,Wineries,5.0,56,$$,38.23234,-122.33191,Napa_Valley
WineINN & DineINN,"449 Seminary St Napa, CA 94559",Ry8rKQtz98SNW7CXsRweww,winetours,Wine Tours,5.0,5,,38.29204,-122.29214,Napa_Valley
Encanto Vineyards,"1021 McKinstry St Napa Napa, CA 94559",v59bL2jsKfviHRKfgmebog,wineries,Wineries,5.0,3,,38.30111,-122.282289,Napa_Valley
James Cole Winery,"5014 Silverado Trl Napa, CA 94558",kRu7EKnQqb0u0Yjothl7VA,wineries,Wineries,4.5,130,$$$,38.3707151322414,-122.298978236493,Napa_Valley
Scribe Winery,"2100 Denmark St Sonoma, CA 95476",xEIQAkMIM9dBQ9TBWAxj6Q,wineries,Wineries,4.0,322,$$,38.2712839,-122.4230626,Napa_Valley
Ceja Vineyards,"1016 Las Amigas Rd Napa, CA 94559",kASFvkVETmxwrl3Li-bOPA,wineries,Wineries,4.5,79,$$,38.23562255391007,-122.31443098305694,Napa_Valley
Napa Cellars Tasting Room,"7481 St Helena Hwy Napa, CA 94558",ZHQLF1Huq-m24ZK6FTnXRA,wineries,Wineries,4.5,376,$$,38.421192,-122.390177,Napa_Valley
Baldacci Family Vineyards,"6236 Silverado Trl Napa, CA 94558",cw0CiHgKriffvqOcQFiFeg,wineries,Wineries,4.5,112,$$,38.418323571036034,-122.337243,Napa_Valley
Tulocay Winery,"1426 Coombsville Rd Napa, CA 94558",gN1eiK2qVaUMN-kJBELsog,wineries,Wineries,5.0,14,$$,38.2979965209961,-122.258697509766,Napa_Valley
"Materra, Cunat Family Vineyards","4326 Big Ranch Rd Napa, CA 94558",G_AQMzXvnQsKWbBYJl-4zA,wineries,Wineries,5.0,43,$$,38.3612027,-122.3118133,Napa_Valley
Robert Biale Vineyards,"4038 Big Ranch Rd Napa, CA 94558",R4uYU5LzpW4dxQKNbcK0ng,winetours,Wine Tours,4.5,125,$$,38.3560694828793,-122.308430671692,Napa_Valley
WeWine Napa,"1625 Trancas St Unit 2244 Napa, CA 94558",7Th8WBELZe-QzSBoy_dulg,winetours,Wine Tours,5.0,10,,38.3215163,-122.3041079,Napa_Valley
Jacuzzi Family Vineyards,"24724 Arnold Dr Sonoma, CA 95476",u-Ta5s0ZAxyegzCHtWPGzQ,wineries,Wineries,4.0,821,$$,38.21471,-122.453885,Napa_Valley
Viansa Winery & Marketplace,"25200 Arnold Dr Sonoma, CA 95476",P2CudRXjCSgmxpC4TCiJwA,wineries,Wineries,4.0,624,$$,38.20847,-122.451805,Napa_Valley
Quixote Winery,"6126 Silverado Trl Napa, CA 94558",PuOf3pWWbENW-RC3sQ-vfw,wineries,Wineries,4.0,61,$$,38.4181009125607,-122.323620009856,Napa_Valley
PF Wine Tours,"Napa, CA 94558",MpjwUeWPJWnmdjMRK4gJGA,winetours,Wine Tours,5.0,55,,38.31865,-122.29994,Napa_Valley
Hudson Ranch,"5398 Carneros Hwy Napa, CA 94559",nEdwg3yvgmnfZ6-DQwDdNg,wineries,Wineries,5.0,4,,38.264949,-122.365935,Napa_Valley
John Anthony Vineyards,"1440 1st St Tasting Lounge Napa, CA 94559",C0R5urCJk-JSsEP_bIJtnQ,wineries,Wineries,4.5,140,$$,38.2975791,-122.2891414,Napa_Valley
Opus One Winery,"7900 St Helena Hwy Oakville, CA 94562",XPh3ZBqxA3tldU_-_6KHFg,wineries,Wineries,3.5,465,$$$$,38.4414391100535,-122.399720296699,Napa_Valley
Whetstone Wine Cellars,"1075 Atlas Peak Rd Napa, CA 94558",ZdP7vvVoMe2d68FndNlmgQ,wineries,Wineries,4.5,87,$$,38.3393115,-122.2623851,Napa_Valley
Cornerstone Cellars,"850 Bordeaux Way Ste 6 Napa, CA 94558",iouQNhgizPClznxlgrhaaw,wineries,Wineries,4.5,7,,38.2474144,-122.2720766,Napa_Valley
Far Niente Winery,"1350 Acacia Dr Oakville, CA 94562",uHwIZd9lmT56tMP_nd6F_w,wineries,Wineries,4.5,162,$$$,38.424479,-122.404132,Napa_Valley
Silver Oak - Oakville,"915 Oakville Cross Rd Oakville, CA 94562",Zumm3-xGQ3Nud-R1YvydCA,wineries,Wineries,4.0,489,$$$,38.4404422,-122.3809788,Napa_Valley
The Caves at Soda Canyon,"2275 Soda Canyon Rd Napa, CA 94558",Q9POpvNouEmBWx6vT8w9Yw,wineries,Wineries,4.5,10,$$$,38.401433,-122.30133,Napa_Valley
Tres Sabores Winery,"1620 S Whitehall Ln Saint Helena, CA 94574",2q5C8DmLFUC-_vLA04kvCg,wineries,Wineries,5.0,126,$$,38.461548,-122.444536,Napa_Valley
Inglenook,"1991 St Helena Hwy Rutherford, CA 94573",9hPBXzNpGYvxaI0lDJrJ6w,wineries,Wineries,4.0,367,$$$,38.458392,-122.423796,Napa_Valley
Grgich Hills Estate,"1829 St Helena Hwy Rutherford, CA 94573",6zcB6zokx3LdfaHPIc8s_Q,wineries,Wineries,4.0,590,$$,38.465419,-122.428989,Napa_Valley
Shafer Vineyards,"6154 Silverado Trl Napa, CA 94558",6NfZ7oanPwGauSxZXDz4jw,wineries,Wineries,4.5,45,$$$,38.419881,-122.326894,Napa_Valley
Laces and Limos,"2480 Oak St Ste A Napa, CA 94559",8GM7yZiaTNlLL0uZ_cR_Jg,winetours,Wine Tours,5.0,8,,38.295639,-122.2999753,Napa_Valley
PlumpJack Winery,"620 Oakville Cross Rd Oakville, CA 94562",pWIKdVb0VOoPHxBP0SAb9w,wineries,Wineries,3.5,179,$$,38.455434,-122.374111,Napa_Valley
Wine Country Drivers,"Napa, CA 94581",jbNbimv4HawSNpTMupGg7A,winetours,Wine Tours,5.0,23,,38.29695,-122.2868,Napa_Valley
Luna Vineyards,"2921 Silverado Trl Napa, CA 94558",6ggJeMWJyoproJMlmzlZBQ,wineries,Wineries,3.5,230,$$,38.34508,-122.28384,Napa_Valley
Larson Family Winery,"23355 Millerick Rd Sonoma, CA 95476",Mq_fixpIw3lu__ykB3hMnQ,wineries,Wineries,4.5,566,$$,38.2361999,-122.4483,Napa_Valley
Napa Private Tours,"1052 Shetler Ave Napa, CA 94559",ncAjM4gkobRt4MCFioBBSw,winetours,Wine Tours,5.0,60,,38.28276,-122.27123,Napa_Valley
Razi Winery,"3108 Silvarado Trl Napa, CA 94558",LFnfdKMSQgA5KL17WjnwDw,wineries,Wineries,5.0,36,$$,38.349254,-122.283146,Napa_Valley
Carneros Della Notte,"1003 Dealy Ln Napa, CA 94559",-jZOFauYP5dPtP7UehPjZw,wineries,Wineries,4.5,16,$$,38.2575999,-122.339651,Napa_Valley
Mayacamas Vineyards & Winery,"1155 Lokoya Rd Napa, CA 94558",Fh7tfClmn1Bszw838joEPw,wineries,Wineries,4.5,11,$$$$,38.36518,-122.42326,Napa_Valley
Madonna Estate,"5400 Old Sonoma Rd Napa, CA 94559",YxBLqDuO4FSIm5QExHWPBg,wineries,Wineries,3.5,173,$$,38.2556419372559,-122.341018676758,Napa_Valley
Aonair Wine,"Napa, CA 94558",QGMN5PGHv8A10AO9LL_m2w,wineries,Wineries,5.0,63,$$$,38.3177642822266,-122.29174041748,Napa_Valley
Beaulieu Vineyard,"1960 Saint Helena Hwy Rutherford, CA 94573",Av_UWwtKRBLJkL9T5GYPOA,wineries,Wineries,4.0,413,$$,38.46016,-122.423291,Napa_Valley
Beau Wine Tours & Limousine Service,"1754 2nd St Ste B Napa, CA 94559",m9AghieXt2oaQAEIkKTyXQ,winetours,Wine Tours,4.5,349,,38.296694,-122.2924582,Napa_Valley
Hamel Family Wines,"15401 Sonoma Hwy Sonoma, CA 95476",FiJVwo9-E74VLpi5XpKX5g,wineries,Wineries,4.5,97,$$$,38.3458142305308,-122.494017806885,Napa_Valley
Celani Family Vineyards,"2230 Big Ranch Rd Napa, CA 94558",l2F5bF9XDKAhD_Fc_HKO6A,wineries,Wineries,4.5,2,$$$,38.334573,-122.293094,Napa_Valley
St. Supery Estate Vineyards & Winery,"8440 St Helena Hwy Rutherford, CA 94573",Z0fYtkNluub2edL0-dhlxg,wineries,Wineries,4.0,461,$$,38.4551318502323,-122.414560554116,Napa_Valley
The Wine Foundry,"45 Enterprise Ct Napa, CA 94558",FMUG_BW33P7xXJt_Pdn2_A,wineries,Wineries,5.0,10,$,38.2603302,-122.2742081,Napa_Valley
B Cellars Vineyards & Winery,"703 Oakville Cross Rd Oakville, CA 94558",L9vSIsnpAskQGRhUz_vdqg,wineries,Wineries,5.0,157,$$,38.449864,-122.373264,Napa_Valley
Gundlach Bundschu Winery,"2000 Denmark St Sonoma, CA 95476",Tl7D5crViVQnXFA1eL2sAQ,wineries,Wineries,4.0,567,$$,38.27853,-122.42058,Napa_Valley
Madorom Vineyards,"2340 Silverado Trl Napa, CA 94558",C9-C9pwHnsb5gGxE1-la9Q,wineries,Wineries,5.0,3,$$,38.340156,-122.281946,Napa_Valley
Prime Cellars,"974 Franklin St Napa, CA 94559",y-eh93-FKhMvlU8Cj6MHuQ,wineries,Wineries,5.0,31,$$,38.2973361393272,-122.288313821426,Napa_Valley
All Day Wine Tours,"Napa, CA 94558",OT5sd_SArXGo8Si-xdtKQQ,winetours,Wine Tours,5.0,24,,38.32923889160156,-122.2959213256836,Napa_Valley
Nickel & Nickel,"8164 St Helena Hwy Oakville, CA 94558",iYWNb8o9AuKEKpuiAiKQvw,wineries,Wineries,4.5,131,$$$,38.443243,-122.406763,Napa_Valley
T3 - Tesla Tours & Transportation,"952 School St Ste 252 Napa, CA 94559",XeS29YWAoCOwe6jP-kqTaA,winetours,Wine Tours,4.5,24,,38.2968914,-122.2889887,Napa_Valley
Robert Craig Winery Tasting Salon,"625 Imperial Way Napa, CA 94559",cFR5QwgKm2GyEMRsmw_eQg,wineries,Wineries,4.5,54,$$,38.30657,-122.28252,Napa_Valley
Holman Cellars,"918 Enterprise Way Ste G Napa, CA 94558",XWi1gDixb2qSBkKJm63T0Q,wineries,Wineries,5.0,38,$$,38.259432,-122.274448,Napa_Valley
Napa Bee Driven,"Napa, CA 94558",_sGfjVSoD2CsuS2e2ddgDg,winetours,Wine Tours,5.0,55,,38.291168,-122.286279,Napa_Valley
Gloria Ferrer Winery,"23555 Arnold Dr Sonoma, CA 95476",EiFXC3xjTpx2Ja6GrvwgXQ,wineries,Wineries,4.0,836,$$,38.223832,-122.472276,Napa_Valley
Sciandri Family Vineyards,"50 Kreuse Canyone Dr Napa Valley, CA 94559",E3n9oNbpHCSKg652QMwDCg,wineries,Wineries,5.0,7,$$$,38.281436,-122.23796,Napa_Valley
Antica Napa Valley,"3700 Soda Canyon Rd Napa, CA 94558",8n4fUXqLg-Y5Rj3LnAoW6Q,wineries,Wineries,5.0,8,$$$,38.427937,-122.274933,Napa_Valley
Italics Winegrowers,"40 Rapp Ln Napa, CA 94558",XfqpcUew8dHgPjdikRWm-Q,wineries,Wineries,5.0,14,$$$,38.3137,-122.250615,Napa_Valley
Robledo Family Winery,"21901 Bonness Rd Sonoma, CA 95476",EyvLSq609Cyy-sRXv3te_w,wineries,Wineries,4.5,217,$$,38.24739263290604,-122.48350054331848,Napa_Valley
Rocca Family Vineyards Tasting Room,"129 Devlin Rd Napa, CA 94558",4vw1Yemztf-PQH6YEpWmpQ,wineries,Wineries,4.5,12,$$,38.23821,-122.26942,Napa_Valley
Vine Cliff Winery,"7400 Silverado Trl Napa, CA 94558",CBsJpEvvTIGh7LTzaGTaTg,wineries,Wineries,4.5,45,$$$$,38.447107,-122.350549,Napa_Valley
Buena Vista Winery,"18000 Old Winery Rd Sonoma, CA 95476",zCwt1XcmhfwsbQYgYPpUGA,wineries,Wineries,4.0,450,$$,38.299502,-122.421942,Napa_Valley
Lewis Cellars,"4101 Big Ranch Rd Napa, CA 94558",emW_LuDDwbiX3iz3rfwmwA,wineries,Wineries,4.5,13,$$$$,38.351246,-122.307404,Napa_Valley
Wine Country Safari,"1876 Brown St Napa, CA 94559",XJlD7EBaB7BW9q7GONvh0g,winetours,Wine Tours,5.0,9,,38.305503,-122.2915887,Napa_Valley
Wine Tour Drivers,"Napa, CA 94559",VOsMui5A1DLINVsvkhRmww,winetours,Wine Tours,5.0,72,,38.291542053222656,-122.28694152832031,Napa_Valley
Covert Estate,"15 Chateau Ln Napa, CA 94558",eIQWrVyb1l2iqNcmXXen0Q,wineries,Wineries,5.0,4,,38.307445,-122.247464,Napa_Valley
Napa Valley Wine Trolley,"1754 2nd St Ste B1 Napa, CA 94559",OCq_kYHmhBhXx_cMb0BV5w,winetours,Wine Tours,4.0,143,,38.2967254900593,-122.289325989441,Napa_Valley
Promontory Winery,"1601 Oakville Grade Oakville, CA 94562",CAf8TqSPE_wqmnaOSMb45w,wineries,Wineries,5.0,15,$$$$,38.4208658,-122.4149621,Napa_Valley
Havens Winery,"1004 Clinton St Napa, CA 94558",FDkYT4QfX4NEpH5NsoiVVQ,wineries,Wineries,4.5,8,$$$,38.301274,-122.2874659,Napa_Valley
Wine Tasting Driver,"4225 Solano Ave Ste 736 Napa, CA 94558",01J1xPoBSbi_VM6HaH_4XA,winetours,Wine Tours,5.0,18,,38.3364765,-122.3229962,Napa_Valley
We Drive Your Car Napa Valley,"947 Lincoln Ave Napa, CA 94558",CgsuUrYGrQsTC3IIFPXlQg,winetours,Wine Tours,5.0,12,,38.3088677,-122.2917507,Napa_Valley
Oakville Ranch Vineyards,"7781 Silverado Trl Napa, CA 94558",5WgvpoEa_Bqvnz9S4gKdjQ,wineries,Wineries,5.0,3,$$,38.4610071602159,-122.358888437234,Napa_Valley
Napa Valley Wine Guides,"Napa, CA 94558",19wSHfn7MkUpazpd7j4yHg,winetours,Wine Tours,5.0,56,,38.3841682813529,-122.285937502441,Napa_Valley
Small Lot Wine Tours,"San Vicente Ave Napa, CA 94558",RQulJtaJRZ1Ax8a-tn74oQ,winetours,Wine Tours,5.0,50,,38.33684,-122.31545,Napa_Valley
Maritas Vineyard,"2055 N Ave Napa, CA 94558",S9KcAPfjNofMhmQ3MfU2XQ,wineries,Wineries,5.0,9,$$$,38.302154,-122.249869,Napa_Valley
Shed Creek Cellar,"80 Grapevine Ln Napa, CA 94558",EhOXeJW9Wwp_3vkQ52jTUA,wineries,Wineries,5.0,2,,38.338405360536775,-122.101645,Napa_Valley
Cliff Lede Vineyards,"1473 Yountville Cross Rd Yountville, CA 94599",M9aVMwujjWigBtdODRdP3A,wineries,Wineries,4.0,226,$$,38.42407,-122.344787,Napa_Valley
Fortunati Vineyards,"986 Salvador Ave Napa, CA 94558",wOVo-DHunhkrQymOEg4QvQ,wineries,Wineries,4.5,14,$$,38.34905,-122.30949,Napa_Valley
Stewart Cellars,"6752 Washington St Yountville, CA 94599",aC0tETLk6n0wGxFbqgIkMw,wineries,Wineries,4.5,49,$$,38.406152,-122.3664433,Napa_Valley
Groth Vineyards & Winery,"750 Oakville Cross Rd Oakville, CA 94562",oeNZDuNqJSMLFglBQcvGIA,wineries,Wineries,4.5,57,$$,38.44922,-122.379524,Napa_Valley
Wine Me Away,"Napa, CA 94558",p8Nonov6jEFz9911aXQzkQ,winetours,Wine Tours,5.0,19,,38.38326,-122.31306,Napa_Valley
Bello Family Vineyards,"8424 Saint Helena Hwy Napa, CA 94558",mbhlmSlqK5wBx6TonAbluw,wineries,Wineries,5.0,1,,38.453556060791,-122.414756774902,Napa_Valley
Amuse Bouche Winery,"1130 Main St Napa, CA 94559",dPFz1ert17m4U7pHwsN4wg,wineries,Wineries,4.5,3,$$$,38.30039,-122.286039,Napa_Valley
Gargiulo Vineyards,"575 Oakville Cross Rd Oakville, CA 94558",-TGstzhUvPOB_2Qt2MSLLQ,wineries,Wineries,4.5,21,$$,38.453315,-122.366836,Napa_Valley
Miner Family Winery,"7850 Silverado Trl Oakville, CA 94562",eP9pZmihgwPdd_8uIwb9Uw,wineries,Wineries,4.0,239,$$,38.462719,-122.371093,Napa_Valley
Boyd Family Vineyard,"4326 Big Ranch Rd Napa, CA 94558",60i68SD1xroy0j0h3BZiXw,wineries,Wineries,5.0,9,$$,38.3612027,-122.3118133,Napa_Valley
Matthiasson Wines,"3175 Dry Creek Rd Napa, CA 94558",d-WFHC31DhZ_lbFTRjkR-g,wineries,Wineries,5.0,1,,38.33861,-122.35076,Napa_Valley
Oasis by Hoopes,"6204 Washington St Napa, CA 94558",o1gzKI9tCcs9Vth2JXz25A,wineries,Wineries,3.5,15,,38.387957163018584,-122.34952523506253,Napa_Valley
Priest Ranch,"6490 Washington St Yountville, CA 94599",RygLWtxkDBkHghQeFfoELQ,wineries,Wineries,4.5,171,$$,38.400084,-122.359028,Napa_Valley
Hidden Napa Jeep Wine Tours,"Napa, CA 94558",eUDT6azH0tyMOQngmqleLQ,winetours,Wine Tours,5.0,23,,38.31832,-122.29177,Napa_Valley
Bell Wine Cellars,"6200 Washington St Yountville, CA 94599",09PBdFwohkAlE2WjgMQSdQ,wineries,Wineries,4.5,123,$$,38.389816,-122.345741,Napa_Valley
Reid Family Vineyards,"1020 Borrette Ln Napa, CA 94558",Z94Ftar1bQ6asD3dmILpkA,wineries,Wineries,5.0,27,$$,38.3137,-122.34831,Napa_Valley
Mira Winery,"6170 Washington St Yountville, CA 94558",0JueW5I1U5wWHu4D308THw,wineries,Wineries,5.0,6,,38.38732,-122.34847,Napa_Valley
Smith Devereux Wines,"1460 First St Napa, CA 94559",EvoxeKMPe1EIGKnwWs5ulw,wineries,Wineries,5.0,1,,38.297448,-122.289345,Napa_Valley
Roy Estate,"1220 Soda Canyon Rd Napa, CA 94558",mDZh95v33mH6L8Q39nU4DQ,wineries,Wineries,5.0,1,$$$$,38.36585,-122.27873,Napa_Valley
Screaming Eagle Winery,"Oakville, CA 94562",RvPH8DcSFPWFrB1icb1T-A,wineries,Wineries,3.5,6,$$$$,38.4369277954102,-122.402816772461,Napa_Valley
Ram's Gate Winery,"28700 Arnold Dr Sonoma, CA 95476",kajjCWRMLmCZRF3du9odJQ,wineries,Wineries,3.5,441,$$$,38.1741152,-122.4504982,Napa_Valley
Falcor Winery,"2511 Napa Valley Corporate Dr Ste 115 Napa, CA 94558",F2rPBR2c_eO7-D0p3UxT3g,wineries,Wineries,4.5,70,$$,38.25603,-122.276279,Napa_Valley
The Donum Estate,"24500 Ramal Rd Sonoma, CA 95476",Kv67fUY_H3RNpgqzu12bxg,wineries,Wineries,4.5,33,$$$,38.231313,-122.402866,Napa_Valley
Let's Roll Wine Tours & Designated Drivers,"Napa, CA 94558",lk9WyfZKonlVp9jzLiMfWw,winetours,Wine Tours,5.0,13,,38.2968,-122.286,Napa_Valley
Hill Family Estate,"6512 Washington St Yountville, CA 94599",SSNXw-fitxPgVEcOnj-Uvw,wineries,Wineries,4.5,160,$$,38.4011459350586,-122.359878540039,Napa_Valley
Ideology Cellars,"5225 Solano Ave Napa, CA 94558",udB2n_tvbTMuzyBATsBvng,wineries,Wineries,5.0,1,,38.3638202476272,-122.339110944775,Napa_Valley
Ovid Vineyard,"255 Long Ranch Rd Saint Helena, CA 94574",xL3M1LjXl1xz0EjmQv_u-w,wineries,Wineries,4.5,12,$$$,38.46344,-122.34397,Napa_Valley
Black Cat Vineyard,"1352 4th Ave Napa, CA 94559",dQC-DW5MdMFgH3G_MiTySg,wineries,Wineries,5.0,13,$$,38.28149,-122.247714,Napa_Valley
Realm Cellars,"5795 Silverado Trl Napa, CA 94558",Hu100_7pj1Pf5_woD1vxMw,wineries,Wineries,5.0,11,$$$,38.400333,-122.330664,Napa_Valley
Handwritten Wines,"6494 Washington St Yountville, CA 94599",EcybLupMoknFEQfkgdcZAA,wineries,Wineries,5.0,49,$$$,38.4001796,-122.3593313,Napa_Valley
Elkhorn Peak Cellars,"200 Polson Rd Napa, CA 94558",i6Fhq_qSyKxlWelDvFhjVQ,wineries,Wineries,5.0,12,$$,38.228224,-122.219554,Napa_Valley
Taylor Family Vineyards,"902 Enterprise Way Ste P Napa, CA 94558",fCWwxMBWc-rZl9-WVQ_Nuw,wineries,Wineries,5.0,17,$$$,38.2586755,-122.2716831,Napa_Valley
Staglin Family Vineyard,"1570 Bella Oaks Ln Napa, CA 94558",X2VFE37tVXkHzPa8lL-5NQ,wineries,Wineries,4.0,13,$$$,38.442506,-122.424445,Napa_Valley
Robinson Family Vineyards,"5880 Silverado Trl Napa, CA 94558",KPIVDmcKCAYF95tahIm0og,wineries,Wineries,5.0,21,$$,38.41086361969035,-122.31935492416466,Napa_Valley
Beckstoffer Vineyards,"8600 Conn Creek Rd Rutherford, CA 94573",Lm_x4wgKCzjY8UBaLsQJSQ,wineries,Wineries,5.0,3,,38.464284,-122.395302,Napa_Valley
Nicholson Ranch Winery,"4200 Napa Rd Sonoma, CA 95476",JWEDoVxmR0FruBknJ3hE9g,wineries,Wineries,4.0,320,$$,38.255251261885,-122.3913731858,Napa_Valley
Suisun Creek Winery,"2350 Morrison Ln Fairfield, CA 94534",i504P9R0EQmakyJsDvGi_g,wineries,Wineries,5.0,1,,38.264721,-122.119915,Napa_Valley
Ancien,"Napa, CA 94558",Xc1AuFl56GMyRw1PWHUnRw,wineries,Wineries,5.0,4,,38.297691,-122.235151,Napa_Valley
Oberon,"550 Gateway Dr Ste 220 Napa, CA 94558",S3s5eonF5N_7cl7II1c9ZQ,wineries,Wineries,4.5,2,,38.2237,-122.26617,Napa_Valley
Vezer Family Vineyard,"5071 Suisun Valley Rd Fairfield, CA 94534",vK32HqN9hpNbY4Z8Q_Izsw,wineries,Wineries,4.5,81,$$,38.2940805917162,-122.12020345369,Napa_Valley
Intimate Wine Tours,"1048 Shetler Ave Napa, CA 94559",byzn85-FWZGD8QAKjNCopQ,winetours,Wine Tours,4.5,34,,38.2830221,-122.2712837,Napa_Valley
Futo Wines,"1575 Oakville Grade Oakville, CA 94562",u2oE6OFAJkmDZ3R6YKjBcQ,wineries,Wineries,5.0,4,$$$$,38.416192,-122.412366,Napa_Valley
Spelletich Family Winery,"2545 Napa Valley Corporate Dr Ste C Napa, CA 94558",qMA6KR08TEVaLky5tR_wqQ,wineries,Wineries,4.5,18,$$$,38.253694,-122.275972,Napa_Valley
Cardinale Winery,"7600 St Helena Hwy Oakville, CA 94562",iIivh9j0uSp0AgozDUJUHw,wineries,Wineries,4.0,48,$$$$,38.428591,-122.390506,Napa_Valley
Sodaro Estate Winery,"24 Blue Oak Ln Napa Valley, CA 94558",Aae9Ijv3Msgc8MlgbONhHA,wineries,Wineries,5.0,13,$$,38.315,-122.23313,Napa_Valley
Silver Trident Winery,"6495 Washington St Yountville, CA 94599",RQfPrnAEqAEyAOd8jMDkPA,wineries,Wineries,5.0,64,$$,38.400497,-122.360031,Napa_Valley
Paradigm Winery,"1277 Dwyer Rd Oakville, CA 94562",4AtuFEcaw0_U7C1WREAH8Q,wineries,Wineries,4.5,53,$$,38.42056,-122.39378,Napa_Valley
Harvest Wine Tours,"895 Jackson St Ste 345 Napa, CA 94559",dJWMziV0ifFdqlSADtzObw,winetours,Wine Tours,5.0,7,,38.3066965,-122.288272,Napa_Valley
Gamble Family Vineyard,"7554 St Helena Hwy Oakville, CA 94562",ivqZbNHTgsxzekOzkXCK-w,wineries,Wineries,5.0,19,$$$,38.429147,-122.386892,Napa_Valley
Manny´s Wine Tours,"First St Napa, CA 94559",4Ak-g4OGLtaUv_qUcjlN1g,winetours,Wine Tours,5.0,56,,38.291168,-122.286279,Napa_Valley
J.Moss,"901B Enterprise Way Napa, CA 94558",6q1Mfv-LBfx2LwoEIe5HuA,wineries,Wineries,5.0,3,,38.2585653718793,-122.273029536009,Napa_Valley
Kale Wines,"708 1st St Napa, CA 94559",1KlDu-0BU_mTO_FxfBV_fg,wineries,Wineries,5.0,1,,38.291168,-122.286064423279,Napa_Valley
Hyde de Villaine Wines,"588 Trancas St Napa, CA 94558",DJTtmTDSw_IMuoJaPnEFyw,wineries,Wineries,4.0,22,$$$,38.325776,-122.2830894,Napa_Valley
Westwood Estate Wine,"11 E Napa St Ste 3 Sonoma, CA 95476",VrDTQ2K5NRpaspnMpk8odw,wineries,Wineries,4.5,106,$$,38.2915583,-122.4574775,Napa_Valley
Own A Napa Vineyard,"1003 Dealy Ln Napa, CA 94559",cE5GFCgF5fmMciZopPl_2Q,wineries,Wineries,5.0,1,,38.2575999,-122.33965,Napa_Valley
Harlan Estate,"Oakville, CA 94562",ijJdmTT1zWVrFzkHSFdGjg,wineries,Wineries,5.0,5,$$$$,38.4369277954102,-122.402816772461,Napa_Valley
Frias Family Vineyard,"1886 El Centro Ave Napa, CA 94558",F4qho6kGUSBahjCyYfbg-A,wineries,Wineries,4.5,6,$$,38.3348546,-122.3199497,Napa_Valley
RAM Wine Country Tours,"Napa, CA 94599",ovODN7d0sszsmSdPQaBOVQ,winetours,Wine Tours,5.0,13,,38.398939,-122.373129,Napa_Valley
Bliss Wine Tours,"Napa, CA 94558",v4IKkFF6HZw4Uj7sZ65pNg,winetours,Wine Tours,5.0,18,,38.38326,-122.31306,Napa_Valley
Elizabeth Spencer Winery,"1165 Rutherford Rd Rutherford, CA 94573",mHmn7X_LZp0moqzvgbOKOw,wineries,Wineries,4.0,213,$$,38.4589791814193,-122.422060678426,Napa_Valley
Eagle Eye Winery,"6595 Gordon Valley Rd Napa, CA 94558",adsgo4aXIIvgkYCEKOZvLw,wineries,Wineries,5.0,7,$$,38.341023,-122.125888,Napa_Valley
Buccella,"Napa, CA 94599",1AomLKv58nVpKeX1YWU76g,wineries,Wineries,5.0,3,$$$$,38.39829,-122.37058,Napa_Valley
Tournesol Wine,"4297 E 3rd Ave Napa, CA 94558",o9zVXZgeXlHiRLu7p5OETg,wineries,Wineries,5.0,10,$$,38.2965803877752,-122.223340272903,Napa_Valley
Rudd Estate,"500 Oakville Cross Rd Oakville, CA 94562",UcAyqkHKKHVY-c90y6kdeA,wineries,Wineries,4.5,18,$$$,38.4578819274902,-122.366798400879,Napa_Valley
Savor Napa Valley Wine Tours,"1625 Trancas St Ste 4263 Napa, CA 94558",uOD6s5ukEH7p1LBpPJ0M-Q,winetours,Wine Tours,5.0,6,,38.3213996887207,-122.304061889648,Napa_Valley
Napa Valley Chauffeur,"Vallejo, CA 94591",mgEKnjgo7jauX7cLHLKPDA,winetours,Wine Tours,5.0,19,,38.3233943,-122.3018681,Napa_Valley
Schug Carneros Estate Winery,"602 Bonneau Rd Sonoma, CA 95476",OrIT3N_xgMVyi6nZpm6EFQ,wineries,Wineries,4.0,167,$$,38.2330226700153,-122.471251487732,Napa_Valley
The Hess Collection Winery,"1166 Commerce Blvd American Canyon, CA 94503",4pb9mCnUWyQkYmwXsWbPUQ,wineries,Wineries,4.0,7,,38.190715,-122.270332,Napa_Valley
My Private Napa Driver,"2471 Solano Ave Ste 215 Napa, CA 94558",Y0HzxvYeZ9zcORewDJC_JA,winetours,Wine Tours,5.0,3,,38.3077323,-122.3058297,Napa_Valley
Farella Vineyard,"2222 N 3rd Ave Napa, CA 94558",MLrxf2ALwpza9bexFRPcQw,wineries,Wineries,5.0,7,$$,38.312621,-122.22864,Napa_Valley
BOND,"Oakville, CA 94562",JwLGcHOY9pS9u07mncVw_w,wineries,Wineries,5.0,3,$$$,38.43462,-122.40057,Napa_Valley
Meadowcroft Wines,"23574 Arnold Dr Hwy 121 Sonoma, CA 95476",rgVG6mR7humUu5DOPwsQeQ,wineries,Wineries,4.5,121,$$,38.2272243158716,-122.457089424133,Napa_Valley
Quintessential Wines,"1310 Second St Napa, CA 94559",6pblqQvBxZChnEe4dr41oA,wineries,Wineries,4.5,2,,38.29735,-122.28764,Napa_Valley
Napa Valley Wine Country Tours,"American Canyon, CA 94503",BGMMtumtmN1z1qaIsppz6Q,winetours,Wine Tours,4.5,214,,38.2136164,-122.2533803,Napa_Valley
Hanzell Vineyards,"18596 Lomita Ave Sonoma, CA 95476",6QbIDTkzTSD7myLFyJvjLw,wineries,Wineries,4.5,85,$$$,38.3134300223746,-122.462327066159,Napa_Valley
Blackbird Vineyards,"1330 Oak Knoll Ave Napa, CA 94558",HqtdtN2yWMJQGkYQtNV1Jg,wineries,Wineries,4.5,10,$$$,38.3606279211163,-122.318094635684,Napa_Valley
Napa Driving Services,"1625 Trancas St Unit 3871 Napa, CA 94558",G0gCTZN6lZldH3vYECrvdQ,winetours,Wine Tours,5.0,4,,38.3214,-122.30406,Napa_Valley
Relic Wine Cellars,"2400 Soda Canyon Rd Napa, CA 94558",RGoYz-L0f19UER9eDh5Zvw,wineries,Wineries,5.0,10,$$,38.411912,-122.293303,Napa_Valley
Dolce Winery,"1350 Acacia Dr Oakville, CA 94562",WE-fu3mhn9X94ONKcXCY6Q,wineries,Wineries,5.0,1,$$,38.4240773,-122.402102,Napa_Valley
Altamura Winery,"1700 Wooden Valley Rd Napa, CA 94558",saOTUUe5LO3qksKLiH5PrA,wineries,Wineries,4.0,12,$$$,38.364395,-122.1751742,Napa_Valley
Stacy's Wine Tours,"Napa, CA 94503",zAjrnCT-4XCANbxsHvbW0Q,winetours,Wine Tours,5.0,8,,38.195022,-122.24115,Napa_Valley
Valley Wine Warehouse,"175 Tower Rd Napa, CA 94558",-EmhgVkXfrjc0WylD95HDQ,wineries,Wineries,5.0,1,$$,38.2104,-122.25724,Napa_Valley
Destiny Wine Tours,"3295 Vichy Ave Napa, CA 94558",8hKV48Oprx7jhW1xLzQFeg,winetours,Wine Tours,5.0,23,,38.33656,-122.2587,Napa_Valley
Napa Valley College Winery,"2277 Napa-Vallejo Hwy Napa, CA 94558",y7zQrgBG8U78l4ch-vyh1Q,wineries,Wineries,5.0,3,$$,38.274349,-122.277736,Napa_Valley
Forthright Winery,"2255 Dry Creek Rd Napa, CA 94558",19K7pxZu63dNyhPSvFWr7Q,wineries,Wineries,5.0,1,,38.33031,-122.34389,Napa_Valley
Favia Erickson Winegrowers,"2031 Coombsville Rd Napa, CA 94558",Ea3TmOvfPO-A3DWWBm6lrA,wineries,Wineries,5.0,6,,38.29348,-122.24972,Napa_Valley
Thirty-Seven Winery,"3000 Sears Point Rd Sonoma, CA 95476",HA3uxokrUs_PBRYqwj20TQ,wineries,Wineries,5.0,2,,38.150444,-122.4489975,Napa_Valley
Vezer Family Vineyard,"2522 Mankas Corner Rd Fairfield, CA 94534",nNUN1b0kfYLAVE6iO2niOg,wineries,Wineries,4.5,108,$$,38.285969,-122.107518,Napa_Valley
Ghost Block Estate Wines,"7830-40 St Helena Hwy Oakville, CA 94562",udfbO6gVIXF1j2gx4_9H4w,wineries,Wineries,5.0,14,,38.435978775739244,-122.40191144110308,Napa_Valley
J Moss,"901 Enterprise Way Napa, CA 94581",ZkJu7hAgzSRLsnGD3ZaU3w,wineries,Wineries,5.0,4,,38.258674,-122.273574,Napa_Valley
Sonoma Valley Wine Trolley,"21707 8th St E Ste B Sonoma, CA 95476",w1suDinCpX6oThss-Tlwgw,wineries,Wineries,4.5,100,$$,38.26046,-122.44134,Napa_Valley
Peter Cellars,"21708 Broadway Sonoma, CA 95476",Bjz2LRAcRrZR9IFR6VsciQ,wineries,Wineries,4.5,73,$$,38.2578964073869,-122.450040578842,Napa_Valley
David Arthur Vineyards,"210 Long Ranch Rd Saint Helena, CA 94574",oZolTxqwId-Z7cPA9HzLQw,wineries,Wineries,5.0,18,$$$,38.465325,-122.345735,Napa_Valley
Wooden Valley Winery,"4756 Suisun Valley Rd Fairfield, CA 94534",YY4TWJxI5dPW6DZNnXPA5g,wineries,Wineries,4.5,130,$$,38.27656,-122.112879,Napa_Valley
Buoncristiani Family Winery,"2275 Soda Canyon Rd Napa, CA 94558",EhpRE40dRlIgcLRHCw4fMA,wineries,Wineries,5.0,5,$$$,38.40336,-122.30048,Napa_Valley
Absolutely Fabulous Tours,"Napa, CA 94558",UmZH-kO4MkZXMRRE16foxg,winetours,Wine Tours,5.0,14,,38.3170536,-122.3019206,Napa_Valley
Scholium Project,"5074 Old Sonoma Rd Napa, CA 94559",S_SbommVD6sJlAHfZnSO_Q,wineries,Wineries,5.0,5,,38.26635,-122.33292,Napa_Valley
Your Driver In Napa Wine Tours,"Napa, CA 94558",Wcr72plltGghCrhQVq719Q,winetours,Wine Tours,5.0,25,,38.3177642822266,-122.29174041748,Napa_Valley
Dynamic Napa Wine Tours,"1754 2nd St Ste B2 Napa, CA 94559",pFDXDcJ6Rsviqrjt0stkbw,winetours,Wine Tours,4.5,33,,38.29669,-122.29246,Napa_Valley
G V Cellars,"1635 Mason Rd Fairfield, CA 94534",R03IAJXqxRAsx18uGlxBbg,wineries,Wineries,4.5,73,$$,38.24296221671643,-122.16904532035119,Napa_Valley
Simply Driven,"103 Hemings Ct Napa, CA 94558",QZ6XARRTHCHg4BBdXJlcpQ,winetours,Wine Tours,5.0,21,,38.338537,-122.312223,Napa_Valley
Napa Your Way,"Napa, CA 94558",T6qbJZPSL8Xf6wPCqagftA,winetours,Wine Tours,5.0,27,,38.2049098462187,-122.115153021875,Napa_Valley
Kongsgaard Winery,"4375 Atlas Peak Rd Napa, CA 94558",Guj6Pi8kL-BIn_ASiz7QGg,wineries,Wineries,5.0,1,,38.436451,-122.2475128,Napa_Valley
Rock Creek Vineyard,"4610 Green Valley Rd Green Valley, CA 94534",k62ltNl0qe1W3b_reQIN6A,wineries,Wineries,5.0,15,$$,38.268109,-122.163499,Napa_Valley
Winter Wineland,"Sonoma, CA 95476",T7tb2zcqAeuqsfNbaw_6dQ,wineries,Wineries,4.5,11,$,38.293415,-122.470589,Napa_Valley
Valley of the Moon Winery,"134 Church St Sonoma, CA 95476",U3bPnySAiyBNe6Cq9fnzaA,wineries,Wineries,4.0,129,$$,38.2931453,-122.4593959,Napa_Valley
Hope & Grace Wines,"6540 Washington St Yountville, CA 94599",qvsn45TNH0w6HcLLKuuIWQ,wineries,Wineries,4.5,171,$$,38.4029922485352,-122.362121582031,Napa_Valley
Classic Convertible Wine Tours,"Napa, CA 94558",yZLDHjElLq_A1gKaA1bjsQ,winetours,Wine Tours,5.0,20,,38.2975381,-122.286865,Napa_Valley
Auteur Wines,"373 1st St W Sonoma, CA 95476",yKlZBz5gK-F5aGmRV2Beiw,wineries,Wineries,4.5,18,$$$,38.2939789726682,-122.458705292053,Napa_Valley
Blankiet Estate,"2358 California Dr Yountville, CA 94599",7zP3d3gPKVJy7XZbNfRLCw,wineries,Wineries,4.5,11,$$,38.4007242,-122.3837445,Napa_Valley
Godspeed Vineyards,"3655 Mt Veeder Rd Napa, CA 94559",kRNffcKr0Nb1D2ZckTmNGQ,wineries,Wineries,5.0,2,,38.38908,-122.43917,Napa_Valley
Ceja Vineyards Wine Salon,"22989 Burndale Rd Sonoma, CA 95476",seoVbJAQqyk_W6gBvWoCow,wineries,Wineries,5.0,32,$$,38.2460468131242,-122.422827410575,Napa_Valley
Mountain Terraces Vineyard,"3030 Cavedale Rd Glen Ellen, CA 95442",eoQBgO2anf4MCNfwG5rQLg,wineries,Wineries,5.0,1,$$$$,38.357009,-122.466577,Napa_Valley
Groth Vineyards & Winery,"1225 Hillview Ln Napa, CA 94558",_r8RsAqExSu5U-PAuKmKEg,wineries,Wineries,4.0,2,$$$,38.3687531,-122.341313,Napa_Valley
Gemstone Vineyard,"Yountville, CA 94599",XBWkU6I551bFJSNVYWn0gw,wineries,Wineries,5.0,4,$$$$,38.40245,-122.36106,Napa_Valley
Vinoce Vineyards,"1100 Wall Rd Napa, CA 94558",YwaPIpU7BHba4iRbOzkN6Q,wineries,Wineries,5.0,1,$$,38.43888,-122.48222,Napa_Valley
Napa Valley Wine Tours,"Napa, CA 94558",xVvn-AmBT8w6HHkuIGH44A,winetours,Wine Tours,5.0,8,,38.3177642822266,-122.29174041748,Napa_Valley
Phenomenal Limos & Wine Tours,"3379 Solano Ave Ste 301 Napa, CA 94558",DfKPD9OI8bJx3cNChwOE9w,winetours,Wine Tours,5.0,4,,38.3191858,-122.310113,Napa_Valley
Patz & Hall Winery,"21200 8th St E Sonoma, CA 95476",lGW8jAgwHqQdgAoPj8_EgQ,wineries,Wineries,4.5,67,$$$,38.26397,-122.43761,Napa_Valley
Wine & Dine Events,"3240 Soda Canyon Rd Napa, CA 94558",0ixVTViKcRCoNfRNIXROfQ,winetours,Wine Tours,4.5,7,,38.4348204,-122.2958469,Napa_Valley
Keever Vineyards,"Yountville, CA 94599",9f2WKEASJkcJUtDb0SAEuA,wineries,Wineries,5.0,20,$$,38.40245,-122.36106,Napa_Valley
Vinfolio,"500 Devlin Rd Ste 102 Napa, CA 94558",YcPdqrpjA5J-L_43D0Dteg,wineries,Wineries,3.0,2,$$,38.220461,-122.261675,Napa_Valley
Lagier Meredith Vineyard,"4967 Dry Creek Rd Napa, CA 94558",TbnCrWlPPVHEhjdqMayXbw,wineries,Wineries,5.0,4,$$,38.3747445,-122.3879989,Napa_Valley
Roche Winery & Vineyards,"22097A Bonness Rd Sonoma, CA 95476",2dZA_gb2pKGHL82xqQFpRw,wineries,Wineries,4.5,19,,38.24168,-122.48098,Napa_Valley
Moss Creek Winery,"6015 Steele Canyon Rd Napa, CA 94558",88O8sgmFJLkURjKxjt1U8A,wineries,Wineries,5.0,1,$$$,38.44593,-122.19492,Napa_Valley
Master Wine Tours,"25 Fairways Dr Napa, CA 94558",FRMO5fJ8Xy1INUsa6WoNXQ,winetours,Wine Tours,5.0,7,,38.3581390380859,-122.263832092285,Napa_Valley
J Gregory Cellars,"1890 El Centro Ave Napa, CA 94558",B1qwJwySi11mZqEv2IotKw,wineries,Wineries,4.0,4,,38.3349609,-122.3201294,Napa_Valley
Fine Wine Tours,"1641 Elm St Napa, CA 94559",RuXefME_SzxJ_yRzJ-leSw,winetours,Wine Tours,5.0,8,,38.2895385,-122.2915722,Napa_Valley
Napa Private Driver,"Napa Valley, CA 94559",rWHidaVrofQdFMFFSrg-7w,winetours,Wine Tours,5.0,21,,38.2973709106445,-122.290466308594,Napa_Valley
Wine Country Confidential,"Napa, CA 94559",6Zwy9J33qBZdUu0kWcku4w,winetours,Wine Tours,5.0,15,,38.2392768859863,-122.330627441406,Napa_Valley
Iconic Wine Tours,"2114 Imola Ave Napa, CA 94559",fil_Np4WPRdED1FOOWRlBw,winetours,Wine Tours,5.0,3,,38.2798408,-122.256173,Napa_Valley
Bonneau Wines,"21660 8th St E Ste A Sonoma, CA 95476",WKXRds_5UPTv_bxKf4YnYg,wineries,Wineries,4.5,15,$$,38.2595709,-122.4395611,Napa_Valley
Dominus Estate,"2570 Napa Nook Rd Yountville, CA 94599",KN34M4fyOjHpJjJHK3T0cA,wineries,Wineries,4.5,6,$$$$,38.4048461914062,-122.37353515625,Napa_Valley
Designated Drivers Napa Sonoma,"2587 Wine Country Ave Napa, CA 94558",HLMKoJL9SoTSlVDtWRwFyQ,winetours,Wine Tours,4.0,50,,38.3288089,-122.3365829,Napa_Valley
Stone Edge Farm Winery,"Sonoma, CA 95476",jxDjGCqt6iugqJO96qucGg,wineries,Wineries,4.5,8,$$,38.2890739440918,-122.396858215332,Napa_Valley
Frazier Winery,"Napa, CA 94558",893Xlys124uVw8wmkwtNnQ,wineries,Wineries,4.5,8,$$,38.38326,-122.31306,Napa_Valley
Tin Barn Vineyards,"21692 8th St E Ste 340 Sonoma, CA 95476",clqKz648ryrNQ-fpXJuZ1g,wineries,Wineries,4.5,83,$$,38.2590558449157,-122.434944500494,Napa_Valley
Darms Lane Vineyard,"1150 Darms Ln Napa, CA 94558",B-1c4w0RliWzOHJIjFm5dg,wineries,Wineries,5.0,2,,38.36385,-122.35121,Napa_Valley
Napa Sonoma Wine Guy,"Napa, CA 94559",1Ym4mda9rLUrsVAwS9WpCw,winetours,Wine Tours,4.0,4,,38.291168,-122.286279,Napa_Valley
Mangels Vineyards,"4529 Suisun Valley Rd Fairfield, CA 94534",9XhTYIrXeaYWNIiYuzjbfw,wineries,Wineries,4.5,7,$$,38.2646811628515,-122.113631498112,Napa_Valley
VinRoc Wine Caves,"4015 Atlas Peak Rd Napa, CA 94558",-QWgDY7rQXidPYzPrZRA8A,wineries,Wineries,5.0,1,$$,38.42648,-122.24922,Napa_Valley
WALT Wines,"380 1st St W Sonoma, CA 95476",aAu3EoCwCOyeH3BQnXIKMw,wineries,Wineries,4.0,151,$$,38.2943420410156,-122.45832824707,Napa_Valley
Wine Tours by Shane,"Napa, CA 94558",i4_oWFoYzL7Ar07p8NTcpQ,winetours,Wine Tours,5.0,8,,38.31865,-122.29994,Napa_Valley
Repris Wines,"1700 Moon Mountain Dr Sonoma, CA 95476",bX1tMaQf8KeH2ASPkz7dtA,wineries,Wineries,4.5,60,$$$,38.345924,-122.458795,Napa_Valley
Petroni Vineyards,"990 Cavedale Rd Sonoma, CA 95476",uT-8iUdaX49_C_vu7d4XRQ,wineries,Wineries,4.5,96,$$,38.3426659738006,-122.47730255127,Napa_Valley
Amapola Creek,"392 London Way Sonoma, CA 95476",zjtoi1-DH0M2nncStgsjmQ,wineries,Wineries,5.0,1,,38.33422,-122.48064,Napa_Valley
Homewood Winery,"23120 Burndale Rd Sonoma, CA 95476",eBhpal9ua_nql1zKRId4gA,wineries,Wineries,4.0,116,$$,38.24556,-122.42121,Napa_Valley
Napa Valley Vics Wine Tours & Car Services,"108 Coloma Way Vallejo, CA 94589",qbWOchTikPn9F5ArcJ7VDw,winetours,Wine Tours,5.0,7,,38.1521530151367,-122.265014648438,Napa_Valley
Monticelli Brothers,"4446 Stillson St Napa, CA 94558",WDWWBGhqyEEgDG-hhJwkVg,wineries,Wineries,5.0,1,$$,38.33379,-122.32668,Napa_Valley
Robert John Vineyards,"1463 1st St Napa, CA 94559",t-yHeYrpsCI9VkWtbXiGXQ,wineries,Wineries,5.0,2,,38.297093,-122.288957,Napa_Valley
Kapcsandy Family Winery,"Yountville, CA 94599",MGoPkNnON2tW1CHTKku_JQ,wineries,Wineries,5.0,5,$$$,38.40245,-122.36106,Napa_Valley
Vinum Cellars,"499 Devlin Rd Napa, CA 94558",L6XWUxexl3yLhX-Kb90fIQ,wineries,Wineries,5.0,1,,38.223094,-122.263104,Napa_Valley
Driven in Napa Valley,"Napa, CA 94558",9sM5C8R1dvARNYfsargnxQ,winetours,Wine Tours,5.0,5,,38.3177642822266,-122.29174041748,Napa_Valley
Beau Vigne,"6795 Washington St Ste O Yountville, CA 94599",3xhYJYMl1eeMv_q-g-puSg,wineries,Wineries,4.5,33,$$$,38.4065716,-122.3670058,Napa_Valley
Jade Mountain Winery,"621 Airpark Rd Napa, CA 94558",zj5i7gIunFt9pAoFwuft3A,wineries,Wineries,4.0,1,$$$,38.21761,-122.26923,Napa_Valley
Ilsley Vineyards,"6275 Silverado Trl Napa, CA 94558",_x3kXGQdEXdJMabwQGfP7g,wineries,Wineries,5.0,2,$$$,38.425524,-122.328653,Napa_Valley
Old Bridge Cellars,"703 Jefferson St Napa, CA 94559",KvlTvDa970mtLegEnnwi7A,wineries,Wineries,4.5,2,,38.2950233,-122.2938891,Napa_Valley
Perry's Tours,"Napa, CA 94559",6Xjw4mVzjvs5peoVXae-yg,winetours,Wine Tours,5.0,8,,38.25877,-122.24879,Napa_Valley
Detert Family Vineyard,"1500 Walnut Dr St. Helena, CA 94574",pgwmkAZ4ptsuxC_CQJAUvw,wineries,Wineries,4.5,3,$$,38.428924,-122.417375,Napa_Valley
Unique Wine Experience,"Napa, CA 94558",BlGJY_Tte0rlxYyVdENPlg,wineries,Wineries,5.0,12,,38.32923889160156,-122.2959213256836,Napa_Valley
BX of Napa Wines,"Napa, CA 94558",1zrnA2wTMIS7jhpjg8ws4g,wineries,Wineries,5.0,5,$$,38.3177642822266,-122.29174041748,Napa_Valley
Chris Phelps Wines,"1420 Madrona Ave St. Helena, CA 94574",4GsRLffgAZv07XjAwpE2Rw,wineries,Wineries,5.0,1,,38.3029507537766,-122.314904261924,Napa_Valley
Surh Cellars,"Napa, CA 94558",cLFnJdeO-3fAadOV_weSoA,wineries,Wineries,5.0,2,,38.31832,-122.29177,Napa_Valley
Sip California,"D/t Sonoma Sonoma, CA 95476",3NA_pKJ0C4GtQi-epUPaUw,wineries,Wineries,4.0,1,$,38.291859,-122.4580356,Napa_Valley
Crosby Roamann,"45 Enterprise Ct Ste 6 Napa, CA 94558",hIZBrStxP8M2MsUWoqy6Nw,wineries,Wineries,3.5,5,$$,38.2603912353516,-122.274131774902,Napa_Valley
Random Ridge,"4346 Cavedale Rd Mt. Veeder Appellation Glen Ellen, CA 95442",TqPDa4S1dIPa6sxyZ8pLwg,wineries,Wineries,5.0,1,,38.3702,-122.461713,Napa_Valley
CM Destinations & Consulting,"Napa, CA 94559",1VHP7Uo-avxmb9JgaGYgnA,winetours,Wine Tours,5.0,3,,38.2973709106445,-122.290466308594,Napa_Valley
Andrew's Tours and Transportation,"Napa Valley, CA 94558",WDIkvg9WEK-9Yng6k1a7Cg,winetours,Wine Tours,5.0,2,,38.3177642822266,-122.29174041748,Napa_Valley
Galvan Family Cellars,"499 Edison Ct Ste B Fairfield, CA 94534",fr94HUeEN6pY55ibEhtc0A,wineries,Wineries,5.0,9,$$,38.205394,-122.142333,Napa_Valley
Maroon Wines,"3565 Hagen Rd Napa, CA 94558",QGbVcV7MsHSaFUc-6HjedQ,wineries,Wineries,5.0,1,,38.3180046081543,-122.244613647461,Napa_Valley
Destination Napa Valley,"Napa, CA 94558",ImP-eOXHNG3nWKftyXllQg,winetours,Wine Tours,5.0,5,,38.31777,-122.29174,Napa_Valley
Chanticleer Winery,"4 Vineyard View Dr Yountville, CA 94599",kaUan4ZHu-hZ00lRPKKD3Q,wineries,Wineries,5.0,2,,38.3899895846844,-122.36078068614,Napa_Valley
Kamen Estate Wines,"111 E Napa St Ste B Sonoma, CA 95476",jRN6z8mAuJNXmllc8mtqfA,wineries,Wineries,4.5,54,$$$,38.2915849246945,-122.45612814245,Napa_Valley
Liparita Cellars,"Hwy 29 And Oakville Crossroad Napa, CA 94588",ZVSMGfxgspIq2kfnp5Fh0w,wineries,Wineries,5.0,2,,38.436786,-122.4027311,Napa_Valley
Napa Valley Luxury Wine Tours,"4419 Morse Ct Napa, CA 94558",b7J6n3l4U_lPEV7g6hBTGg,winetours,Wine Tours,5.0,6,,38.342125,-122.32106,Napa_Valley
Vellum Wines,"Napa, CA 94581",Ha_bohEqVFkbATTugsVbQw,wineries,Wineries,5.0,1,$$,38.31364,-122.29476,Napa_Valley
Canihan Wines,"1340 Napa Rd Sonoma, CA 95476",OeEm0Fp5r5yB15Dd0ZkRtQ,wineries,Wineries,5.0,6,,38.273313,-122.431212,Napa_Valley
Napa Wine Company,"7830-40 St Helena Hwy Oakville, CA 94562",xIYT8Nl7hDDvjFXp5sKJ0g,wineries,Wineries,4.5,39,$$,38.4363635,-122.4023528,Napa_Valley
Wine Compliance Alliance,"833 Franklin St Ste 7 Napa, CA 94581",TSBMDpW_fiGZ8-OAEgqmaA,wineries,Wineries,5.0,1,,38.2965202331543,-122.2880859375,Napa_Valley
Lake Sonoma Winery,"134 Church St Sonoma, CA 95476",LzVvPSQkK2NO3xnxlB9kBQ,wineries,Wineries,4.5,56,$$,38.29312,-122.45937,Napa_Valley
CALNAP Winery Tours & Limousine,"Napa, CA 94559",BYxVLXn0fi8BouUM377uBw,winetours,Wine Tours,5.0,15,,38.310683,-122.298832,Napa_Valley
Hawkes,"383 1st St W Sonoma, CA 95476",rY91zxRJIUH83B_x8ynyow,wineries,Wineries,4.5,71,$$,38.294241,-122.458823,Napa_Valley
Leviathan Winery,"Oakville, CA 94562",h3qWLb1F32rQblf5dweJFg,wineries,Wineries,4.0,1,,38.4366,-122.40259,Napa_Valley
Corner 103,"103 W Napa St Sonoma, CA 95476",9ViWXENToGN4uvY_O9uhjw,wineries,Wineries,5.0,113,$$,38.291935,-122.459152,Napa_Valley
Topaz Wines,"1755 Monarch Dr Napa, CA 94558",0vqLvXI7c5WVFKEgRya6_Q,wineries,Wineries,5.0,1,,38.33738,-122.31894,Napa_Valley
Rutas De Napa Wine Tours,"Napa, CA 94558",2htl6fHV_VR1rcVFqqOnQQ,winetours,Wine Tours,5.0,4,,38.3177642822266,-122.29174041748,Napa_Valley
EMBRAZEN,"555 Gateway Dr Napa, CA 94558",iIRpipMQnNQhpOBIsVmxvA,wineries,Wineries,5.0,1,,38.22224,-122.26713,Napa_Valley
Lail Vineyards,"Rutherford, CA 94573",GtIC8Tjz9jReS_HEoFqUlw,wineries,Wineries,5.0,2,,38.46024,-122.42023,Napa_Valley
Sonoma Private Tours,"1052 Shetler Ave Napa, CA 94559",ChkQVWpkUG7x2dAR11CLlw,winetours,Wine Tours,5.0,1,,38.2827606201172,-122.27123260498,Napa_Valley
Vine Tours Luxury Transportation,"1625 Trancas St Napa, CA 94558",vWoAQcIkhWkXEaObuUZ32w,winetours,Wine Tours,5.0,3,,38.3214,-122.30406,Napa_Valley
Chiarello Family Vineyards,"6525 Washington St Yountville, CA 94599",PiovgRJovVdZgPtPmm0gtQ,wineries,Wineries,4.0,6,$$,38.401611096057,-122.362370916077,Napa_Valley
Agajanian Vineyards & Wine Company,"2785 Napa Valley Corporate Dr Napa, CA 94558",yOGtzuro7ulAOyqMcxrI0g,wineries,Wineries,5.0,1,,38.2469787597656,-122.276596069336,Napa_Valley
Oakville Cross,"939 Oakville Cross Rd Napa, CA 94558",8qURvTg2gI5KtIPkS6xijw,wineries,Wineries,5.0,1,,38.44308,-122.38796,Napa_Valley
Lindstrom Wines,"5994 Silverado Trl Napa, CA 94558",wo2Q4jdxBcdQ4rFq6KZyJw,wineries,Wineries,5.0,1,,38.407973,-122.32692,Napa_Valley
PUNCH Vineyards,"574 Montgomery St Napa, CA 94559",G3YpDuvn6CJMPQZ3LPJkYA,wineries,Wineries,5.0,1,,38.293898,-122.296768,Napa_Valley
Napa Driver Tours,"Napa, CA 94503",GaPvlbwhHyM77G1cFnhjEw,winetours,Wine Tours,5.0,21,,38.17406,-122.25726,Napa_Valley
Noah Vineyards,"6204 Washington Yountville, CA 94599",C01P5Xas0dfUuMTSevRsbg,wineries,Wineries,4.5,2,,38.390735,-122.346252,Napa_Valley
Stagecoach Vineyard,"3265 Soda Canyon Rd Napa, CA 94558",2849-YkxzjXeZWRiIUqRzw,wineries,Wineries,5.0,2,$$$,38.4379,-122.2956,Napa_Valley
Elan Vineyards,"4500 Atlas Peak Rd Napa, CA 94558",Fk5SFabUQQO5IMu8XmRQ7g,wineries,Wineries,5.0,5,,38.4461288452148,-122.24951171875,Napa_Valley
Bedrock Wine Company,"414 1st St E Sonoma, CA 95476",eI6IaGF9ffRWXBCcv9uyVQ,wineries,Wineries,4.5,19,$$,38.2932338245612,-122.456364071755,Napa_Valley
Last Bottle Wines,"607 Airpark Rd Napa, CA 94558",qEHmozlHJ4q-jgYLPmAnHA,wineries,Wineries,3.0,54,$$$,38.2184371948242,-122.270111083984,Napa_Valley
Rancho Maria Wines,"481 First St W Sonoma, CA 95476",dE_cIQUx8b7-HoI2UXPmxw,wineries,Wineries,4.0,70,$$,38.2924731,-122.4591225,Napa_Valley
CINNAMON'S WINE TOURS,"2471 Solano Ave Ste 116 Napa, CA 94558",4Hcksc9BBFALm04z6tOiFQ,winetours,Wine Tours,5.0,4,,38.3078,-122.30571,Napa_Valley
Amicis Tours,"Napa, CA 94558",jVgcEC00iITDcjnCOiT74A,winetours,Wine Tours,5.0,17,,38.38326,-122.31306,Napa_Valley
Entre Nous Wines,"7688 St Helena Hwy Napa, CA 94558",tzotBUa7dDVXS-GTCpUM_Q,wineries,Wineries,5.0,2,$$$,38.432011,-122.392476,Napa_Valley
Napa Native Wine Tours,"4225 Solano Ave Ste 631 Napa, CA 94558",J0WHHMrh1RKHXAbbTitQWg,winetours,Wine Tours,5.0,13,,38.33653,-122.32299,Napa_Valley
Justice Grace Vineyards,"22985 Burndale Rd Sonoma, CA 95476",cv6LuHfyoQ9-0tjV2w0Gag,wineries,Wineries,5.0,13,$$$,38.242694,-122.422773,Napa_Valley
Eighth Street Wineries Open House,"21692 Eighth St E Ste 340 Sonoma, CA 95476",MlonuKscC95Khpxf0qKJHQ,wineries,Wineries,5.0,2,$$,38.2621651,-122.4399338,Napa_Valley
Napa Limousine Inc,"2405 Laurel St Ste 105 Napa, CA 94559",xkrShKchGkRE3A5bYZsKXg,winetours,Wine Tours,5.0,12,,38.292613,-122.301467,Napa_Valley
Atlas Peak,"Napa, CA 94581",AkaYuEllkz_zMXWmAbVy3Q,wineries,Wineries,3.0,1,,38.31364,-122.29476,Napa_Valley
Lonnie's Wine Tours & Transportation,"Napa, CA 94559",82isDtVlUfeteNVgQ3O-Kw,winetours,Wine Tours,5.0,5,,38.2930030822754,-122.282814025879,Napa_Valley
WineZooloo,"18115 Comstock Ave Ste C Sonoma, CA 95476",0N9WNvqgDsSiR9DAsa4Nqg,winetours,Wine Tours,4.5,2,,38.3113199134266,-122.487856708467,Napa_Valley
Dog-Friendly Wine Tours,"Napa, CA 94559",smgTMSdJDi_SaiHCIwtnBg,winetours,Wine Tours,3.5,3,,38.29737,-122.29047,Napa_Valley
Wine Tasting HdV,"588 Trancas St Napa, CA 94558",FatdWObVdPcGGB3LeBbApA,wineries,Wineries,5.0,2,$$$,38.3261413574219,-122.282272338867,Napa_Valley
Clarbec Wines,"19368 Orange Ave Sonoma, CA 95476",af5KKV_Kw0VUDnonRwjw-A,wineries,Wineries,5.0,1,,38.28882,-122.49469,Napa_Valley
Bacchus Wine Tours & Transportation LLC,"1500 Napa Rd Sonoma, CA 95476",s60shVfsI9jyE-1ro48NmA,winetours,Wine Tours,5.0,13,,38.2726044,-122.4291397,Napa_Valley
Three Sticks Wines,"21692 8th St E Ste 280 Sonoma, CA 95476",g4sisBq5ihKxHzjs1rD8Hg,wineries,Wineries,5.0,1,,38.2621635,-122.4399347,Napa_Valley
Bardessono Vineyards And Wines,"1901 Finnell Rd Yountville, CA 94599",BEGYFXDHAO8TH4ie3mrtLA,wineries,Wineries,5.0,1,,38.4015781,-122.3608105,Napa_Valley
Food & Vine Inc,"68 Coombs St Napa, CA 94559",RBLWZjt82HbFXNHZzvqbrQ,wineries,Wineries,5.0,1,$$,38.2870740762265,-122.287135185514,Napa_Valley
Spoto Wines,"Oakville, CA 94562",xKBeK9FkhiZiyCMo_tDebA,wineries,Wineries,5.0,4,$$$,38.4369277954102,-122.402816772461,Napa_Valley
Rutherford Appellation Wineries Passport Weekend,"Rutherford, CA 94573",Phz4zaPpu3KOelYmRNayLQ,wineries,Wineries,4.5,2,$$,38.46024,-122.42023,Napa_Valley
Selene Wines,"Napa, CA 94558",Oed2riBUDIunS3cEXhZtXg,wineries,Wineries,5.0,1,$$,38.31777,-122.29174,Napa_Valley
Destination Drivers Napa & Sonoma,"Sonoma, CA 95476",7kgPEKQl8eVynU_d5qzuAA,winetours,Wine Tours,5.0,15,$$,38.29188,-122.45726,Napa_Valley
Winery Sixteen 600,"589 1st St W Sonoma, CA 95476",izWaafgu-o71dMJkWnNTMg,wineries,Wineries,5.0,24,$$,38.290421,-122.459446,Napa_Valley
Mora Estate,"Sonoma, CA 95476",3Rl5Nx1Up8tRUCjBSVYhTg,wineries,Wineries,5.0,1,,38.294652,-122.457418,Napa_Valley
Howell At the Moon,"Napa, Ca Napa, CA 94503",z9BAU9hEejoHIv07Fsn_0g,wineries,Wineries,4.5,2,,38.2975381,-122.286865,Napa_Valley
Vino Valley Tours,"1030 Century Dr Napa, CA 94558",74aOMIhtTrcKlFZ-e7xW4w,winetours,Wine Tours,5.0,2,,38.3071213,-122.3335037,Napa_Valley
Troika Wines,"22985 Burndale Rd Sonoma, CA 95476",jxvhiYfvEzzNgef839ehKA,wineries,Wineries,4.0,9,,38.245232,-122.422307,Napa_Valley
B. Kosuge Wines,"Napa, CA 94581",SYM6nw-O2rQjHmir_W5pIg,wineries,Wineries,5.0,1,,38.29695,-122.2868,Napa_Valley
Napa Terroir Wine Tours,"1148 Pear Tree Ln Napa, CA 94558",XyUvKAGNBBB8iTea5328Bw,winetours,Wine Tours,5.0,8,,38.3210506945237,-122.293578274548,Napa_Valley
Coho Wines,"Napa, CA 94581",Q-I8VAUp5_0K_s9kidg01Q,wineries,Wineries,4.5,2,$$,38.29695,-122.2868,Napa_Valley
Valet of the Moon Wine Tours,"Sonoma, CA 95476",Xatlh1YRkyTG-ZCdq2gRvQ,winetours,Wine Tours,5.0,33,,38.2890739440918,-122.396858215332,Napa_Valley
Grapeline Wine Tours,"1051 Broadway Sonoma, CA 95476",VIQ6xJ8ina_MB0bbiEs0_Q,winetours,Wine Tours,5.0,27,,38.2825,-122.45971,Napa_Valley
Gourmet Food & Wine Tours,"453 1st St E Sonoma, CA 95476",PAh1vLibFjxeW7gU7fGTKw,winetours,Wine Tours,5.0,62,,38.2927444,-122.4570054,Napa_Valley
Consort Wine Tours,"Yountville, CA 94599",PAjBZCldBx06ySGDIZtuNw,winetours,Wine Tours,5.0,3,,38.4019490823782,-122.362804412842,Napa_Valley
Don Sebastiani & Sons,"135 W Napa St Sonoma, CA 95476",ZqVyFkyaLAtmv5WStda_mA,wineries,Wineries,5.0,1,,38.29187,-122.45988,Napa_Valley
Peter Franus Wines,"Napa, CA",DH_ZvpVqAXl-4rTytcCEMQ,wineries,Wineries,4.0,1,,38.2990798950195,-122.285377502441,Napa_Valley
Alluvium Wine Tours,"Napa, CA 94558",VwKVSB_BNAvPYasqLrs88g,winetours,Wine Tours,5.0,4,,38.3177642822266,-122.29174041748,Napa_Valley
Rosalynd Winery,"2212 Morrison Ln Fairfield, CA 94534",0AinZuPg9G_QBTTZGOZApA,wineries,Wineries,5.0,5,,38.266387741610366,-122.12993134347965,Napa_Valley
Napa Valley Excursions & Wine Tours,"Napa, CA 94558",gDF8g9O0NgSa1_ECcbz8Ig,winetours,Wine Tours,4.5,10,,38.3186492919922,-122.299942016602,Napa_Valley
Sojourn Cellars,"141 E Napa St Sonoma, CA 95476",wyDWGyyNL6EocGHziMk4AA,wineries,Wineries,4.0,62,$$,38.2913799,-122.45576,Napa_Valley
Shifflett Estate,"PO Box 427 Oakville, CA 94562",dIVOwyUBEXCdBjk3jZUe2g,wineries,Wineries,4.0,1,,38.4366,-122.40259,Napa_Valley
Page Wine Cellars,"520 California Blvd Ste 18 Napa, CA 94559",XzqPyV6naDamNVmWfruD2g,wineries,Wineries,4.0,6,$$,38.2938649,-122.30022,Napa_Valley
Bump Wine Cellars,"521 Broadway Ste A Sonoma, CA 95476",X036gULZAKfBdydmSIv_Dg,wineries,Wineries,5.0,91,$$,38.2915015,-122.45839,Napa_Valley
Signature Transportation of Napa Valley,"1526 Pear Tree Ln Napa, CA 94558",2Wl4g5yia2WFCOw95RGpAg,winetours,Wine Tours,5.0,6,,38.3221893310547,-122.288551330566,Napa_Valley
Valley of the Moon Vintage Festival,"Sonoma, CA 95476",zVqK9KJGoPM25fHWJKz6vQ,wineries,Wineries,5.0,1,$,38.293415,-122.470589,Napa_Valley
L'Uvaggio di Giácomo,"Napa, CA 94581",KDzRyyTJqPGRxNrt6y0Qgg,wineries,Wineries,4.0,1,,38.29695,-122.2868,Napa_Valley
Swanson Wine Tours,"Sonoma, CA 95476",bQkC60udJZ81qVpWfEBOvw,winetours,Wine Tours,5.0,17,,38.28691,-122.46547,Napa_Valley
Oro Puro Vineyards,"Napa, CA 94581",B-Yc5sGjkeiIteTmbm6WXw,wineries,Wineries,4.0,1,,38.29695,-122.2868,Napa_Valley
Sonoma Plaza Wine Experience,"498 1st St E Sonoma, CA 95476",LiW1-Oxh8sr8KUIjvhPGkg,wineries,Wineries,5.0,1,$$,38.291919708252,-122.45630645752,Napa_Valley
Zina Hyde Cunningham Winery,"480 1st St E Sonoma, CA 95476",Pe9HrE7i2c5M0Oh-Qs8xjg,wineries,Wineries,4.0,36,$$,38.2921374,-122.4565204,Napa_Valley
California Wine Tour Services,"Sonoma, CA 95487",wqdQSioejBa2isgEFh_owQ,winetours,Wine Tours,4.5,4,,38.27259,-122.43762,Napa_Valley
West Wine Tours,"Sonoma, CA 95476",NxmjBTbHuE6Fy5fofy_owg,winetours,Wine Tours,4.0,14,,38.28664,-122.46553,Napa_Valley
David Arthur Vineyards,"Rutherford, CA 94573",ER-oINEAATm41AMaRCaeIA,wineries,Wineries,5.0,1,,38.46024,-122.42023,Napa_Valley
Calmere Estate Winery,"2750 Las Amigas Rd Napa, CA 94559",WwvVPFU86u4orW_aPl_nQA,wineries,Wineries,4.5,68,$$,38.230914,-122.348861,Napa_Valley
Ez Wine Tours,"Napa, CA 94558",4sqX8AICnYSlolD8sCs8mg,winetours,Wine Tours,3.5,3,,38.31777,-122.29174,Napa_Valley
Ultimate Wine Tours,"51 Temelec Cir Sonoma, CA 95476",WWA8uGYYAuS9gsj5INJufA,winetours,Wine Tours,5.0,4,,38.2676277160645,-122.48998260498,Napa_Valley
Pina Vineyard Management,"7960 Silverado Trl Napa, CA 94558",y9_DLrDfoTkMCuBgJeQZyg,wineries,Wineries,2.0,1,$$,38.46518,-122.37511,Napa_Valley
Napa Wine Tours,"1370 Trancas St Ste 233 Napa, CA 94558",QhYh-kluraf6xdQWQdAsYg,winetours,Wine Tours,1.0,1,,38.32322,-122.30206,Napa_Valley
G Wine Cellars,"Napa, CA 94558",9K8wa7S0o7od_xbeN0LPdw,wineries,Wineries,1.0,1,,38.3130398821026,-122.234573364258,Napa_Valley
Valley Wine Tours,"Sonoma, CA 95476",jYl3kC2ssoSowBcZ8RlrhA,winetours,Wine Tours,4.5,42,,38.29188,-122.45726,Napa_Valley
Rose Wine Tours,"Sonoma, CA 95476",yy2eaLdiZt_AlhPh4g_zqQ,winetours,Wine Tours,5.0,7,,38.28691,-122.46547,Napa_Valley
The Napa Card,"Napa, CA 94581",8-ahtCnsra_92zWAraZI2g,wineries,Wineries,2.5,6,$$,38.31364,-122.29476,Napa_Valley
Tom Scott Vineyards,"1465 Yountville Cross Rd Yountville, CA 94558",p2sZAS4F6uR6aEASU0hkDg,wineries,Wineries,1.0,1,$$$$,38.425273,-122.346766,Napa_Valley
Barrel Stop,"Napa, CA 94581",gRcGWMDwHk3vOPFn0hzW8Q,wineries,Wineries,3.0,1,,38.31364,-122.29476,Napa_Valley
Modus Operandi Cellars,"Napa, CA",0ytFm9Lu5U0lpqgMDjGw5w,wineries,Wineries,1.0,1,,38.2988586425781,-122.285217285156,Napa_Valley
Andretti Winery,"1625 Trancas St Ste 3017 Napa, CA 94558",NKCMqIlRopcSMA15JpeyJg,wineries,Wineries,3.5,311,$$,38.3215163,-122.3041079,Napa_Valley
Lionstone International,"21481 8th St E Sonoma, CA 95476",pW9QPUkm2_tTXLCzyQ6qvg,wineries,Wineries,1.0,1,,38.262062,-122.442036,Napa_Valley
Napa Vinyards,"Napa, CA 94558",UwgQWRkTzlFnw3-QYCaBlQ,wineries,Wineries,1.0,1,,38.38326,-122.31306,Napa_Valley
Cook Vinyard Management,"19626 Eighth St E Sonoma, CA 95476",LxMkyxBokxu6iRIsuMF5Tw,wineries,Wineries,1.0,1,,38.2862614,-122.434893,Napa_Valley
Top It Off Bottling,"21481 8th St E Ste 1 Sonoma, CA 95476",Jt-VYmagp5ETW1v_G_Ae0g,wineries,Wineries,1.0,2,,38.26248,-122.44207,Napa_Valley
